City,Cloudiness,Country,Date,Humidity,lat,lng,Max Temp,Wind Speed
Ushuaia,75,AR,1590796251,79,-54.8,-68.3,280.15,4.1
Coyhaique,90,CL,1590796192,82,-45.58,-72.07,273.15,1.0
Hermanus,82,ZA,1590796201,97,-34.42,19.23,284.82,2.12
Puerto Ayora,75,EC,1590796408,65,-0.74,-90.35,300.15,8.7
Sauce,100,UY,1590796408,87,-34.65,-56.06,288.15,2.1
Cap Malheureux,1,MU,1590796408,85,-19.98,57.61,294.82,2.24
Fortuna,75,US,1590796409,93,40.6,-124.16,289.82,4.6
Arraial do Cabo,0,BR,1590796409,77,-22.97,-42.03,294.15,4.1
Kabare,49,CD,1590796409,84,-2.47,28.82,289.61,0.38
Sabha,0,LY,1590796409,27,27.04,14.43,297.82,6.05
Chui,100,UY,1590796261,86,-33.7,-53.46,287.71,1.88
Mataura,2,NZ,1590796410,69,-46.19,168.86,284.04,1.11
Rikitea,8,PF,1590796410,80,-23.12,-134.97,297.15,4.43
Punta Arenas,75,CL,1590796410,81,-53.15,-70.92,279.15,5.7
Cape Town,75,ZA,1590796410,93,-33.93,18.42,287.04,0.5
Qaanaaq,8,GL,1590796411,92,77.48,-69.36,271.13,2.07
Ancud,2,CL,1590796224,86,-41.87,-73.82,280.37,2.1
Sisimiut,10,GL,1590796265,85,66.94,-53.67,274.8,4.45
Copala,1,MX,1590796411,59,16.65,-98.98,301.77,3.41
Solapur,26,IN,1590796412,48,17.68,75.92,301.86,6.61
San Jose,75,US,1590796353,46,37.34,-121.89,298.71,9.8
Kapaa,20,US,1590796412,74,22.08,-159.32,300.15,6.2
Lavrentiya,40,RU,1590796413,85,65.58,-171.0,276.48,1.31
Mount Isa,10,AU,1590796413,26,-20.73,139.5,295.15,1.0
Kumul,0,CN,1590796413,26,42.8,93.45,291.12,5.57
Ribeira Grande,100,PT,1590796414,88,38.52,-28.7,290.98,6.26
Samarai,45,PG,1590796249,82,-10.62,150.67,300.71,4.65
Whitehorse,75,CA,1590796414,34,60.72,-135.05,291.15,3.1
Saint George,1,US,1590796265,9,37.1,-113.58,312.59,5.1
San Cristobal,98,VE,1590796350,87,7.77,-72.22,293.2,0.94
Lebu,0,CL,1590796415,73,-37.62,-73.65,281.89,6.52
Airai,87,TL,1590796415,80,-8.93,125.41,291.52,1.23
Saskylakh,40,RU,1590796212,72,71.92,114.08,277.05,2.44
Deniliquin,0,AU,1590796416,78,-35.53,144.97,284.82,0.89
Saint Paul Harbor,90,US,1590796416,62,57.79,-152.41,286.15,2.1
Khatanga,100,RU,1590796416,95,71.97,102.5,274.08,2.86
Buta,98,CD,1590796417,97,2.79,24.73,294.27,0.43
New Norfolk,100,AU,1590796417,74,-42.78,147.06,285.93,0.45
Walvis Bay,0,NA,1590796417,33,-22.96,14.51,290.15,2.6
Yellowknife,20,CA,1590796376,37,62.46,-114.35,284.26,3.1
Chokurdakh,89,RU,1590796418,39,70.63,147.92,286.12,5.09
Grindavik,75,IS,1590796418,93,63.84,-22.43,282.15,11.3
Salalah,90,OM,1590796418,94,17.02,54.09,298.15,1.0
Bluff,20,NZ,1590796419,80,-46.6,168.33,284.31,5.67
Albany,84,US,1590796369,81,42.6,-73.97,299.26,3.02
São João da Barra,4,BR,1590796419,71,-21.64,-41.05,293.06,2.05
Buenos Aires,100,AR,1590796181,82,-34.61,-58.38,290.37,1.0
Novikovo,99,RU,1590796420,94,51.15,37.89,289.51,2.93
Nikolskoye,0,RU,1590796420,81,59.7,30.79,280.15,2.0
Ponta do Sol,40,PT,1590796420,68,32.67,-17.1,293.15,1.5
Jumla,99,NP,1590796420,67,29.27,82.18,284.27,1.21
Hithadhoo,97,MV,1590796420,77,-0.6,73.08,301.46,5.96
Honningsvåg,97,NO,1590796421,79,70.98,25.97,279.22,8.41
Gatesville,1,US,1590796421,39,31.44,-97.74,302.59,3.1
Pevek,94,RU,1590796422,73,69.7,170.31,277.39,9.34
Inhambane,0,MZ,1590796422,88,-23.86,35.38,292.31,2.28
Dingle,92,PH,1590796422,73,11.0,122.67,302.34,0.9
Port Alfred,31,ZA,1590796422,80,-33.59,26.89,287.59,2.68
Waitati,0,NZ,1590796422,52,-45.75,170.57,286.32,0.8
Narsaq,0,GL,1590796423,52,60.92,-46.05,281.15,2.6
Jamestown,90,US,1590796207,88,42.1,-79.24,290.37,4.1
Wellington,83,NZ,1590796240,87,-41.29,174.78,285.37,7.2
Scarborough,0,GB,1590796423,87,54.28,-0.4,283.15,3.08
Praia da Vitória,20,PT,1590796238,87,38.73,-27.07,289.15,2.82
Portland,75,US,1590796258,34,45.52,-122.68,302.59,4.6
Goderich,96,CA,1590796314,86,43.75,-81.72,287.04,2.55
Barrow,1,US,1590796424,63,71.29,-156.79,275.15,5.1
Upernavik,22,GL,1590796425,94,72.79,-56.15,271.53,1.01
Laguna,1,US,1590796425,37,38.42,-121.42,302.15,4.1
Severo-Kuril'sk,48,RU,1590796227,77,50.68,156.12,278.49,4.26
Iwanai,3,JP,1590796130,48,42.97,140.51,293.11,2.78
Kavaratti,100,IN,1590796426,76,10.57,72.64,300.32,0.93
Saint-François,0,FR,1590796426,76,46.42,3.91,283.71,1.12
Hobart,75,AU,1590796426,66,-42.88,147.33,287.04,4.1
Sabla,80,NG,1590796426,25,12.75,4.71,307.01,3.77
Mackay,90,AU,1590796427,83,-21.15,149.2,295.37,5.1
Tuatapere,0,NZ,1590796427,67,-46.13,167.68,284.85,1.51
Hurghada,45,EG,1590796427,33,27.26,33.81,296.15,8.2
Bella Union,0,UY,1590796428,89,-30.28,-57.6,289.58,3.01
Senanga,0,ZM,1590796428,39,-16.12,23.27,285.94,1.87
Kamaishi,0,JP,1590796428,67,39.27,141.88,290.15,1.5
Atuona,5,PF,1590796428,76,-9.8,-139.03,300.65,7.68
Lorengau,93,PG,1590796429,71,-2.02,147.27,302.1,0.77
Petropavlovsk-Kamchatskiy,1,RU,1590796429,50,53.05,158.65,286.15,3.0
Hilo,20,US,1590796263,54,19.73,-155.09,302.15,6.2
Taltal,71,CL,1590796430,74,-25.4,-70.48,288.51,0.52
Karratha,0,AU,1590796431,31,-20.74,116.85,294.02,5.88
Vaini,20,TO,1590796211,78,-21.2,-175.2,299.15,4.1
Zaykovo,4,RU,1590796431,80,57.56,62.76,284.11,2.11
Kemijärvi,28,FI,1590796432,90,66.71,27.43,277.47,3.27
Husavik,40,IS,1590796432,58,66.04,-17.34,285.15,9.3
Buala,79,SB,1590796241,68,-8.14,159.59,303.21,1.98
Leningradskiy,100,RU,1590796432,93,69.38,178.42,277.43,3.89
General Roca,75,AR,1590796247,93,-39.03,-67.58,278.15,2.6
San Patricio,5,MX,1590796236,74,19.22,-104.7,301.15,18.0
Butaritari,3,KI,1590796433,70,3.07,172.79,301.84,2.95
Ketchikan,90,US,1590796433,62,55.34,-131.65,288.15,8.2
Taperoá,97,BR,1590796434,82,-7.21,-36.83,294.28,5.85
Chapais,90,CA,1590796434,81,49.78,-74.85,284.15,4.6
Tasiilaq,100,GL,1590796434,86,65.61,-37.64,277.15,4.6
Qaqortoq,0,GL,1590796434,52,60.72,-46.03,281.15,2.6
Lázaro Cárdenas,0,MX,1590796435,73,17.96,-102.2,299.31,5.09
Leshukonskoye,50,RU,1590796435,74,64.9,45.76,278.71,1.13
Saint-Philippe,38,RE,1590796435,53,-21.36,55.77,295.15,4.1
Ambovombe,13,MG,1590796267,94,-25.17,46.08,291.47,2.97
Bethel,1,US,1590796436,78,41.37,-73.41,297.15,4.6
Puerto Baquerizo Moreno,30,EC,1590796436,89,-0.9,-89.6,296.39,4.93
Tahoua,2,NE,1590796436,14,14.89,5.27,307.55,2.08
Honiara,40,SB,1590796306,70,-9.43,159.95,304.15,2.1
Bambous Virieux,40,MU,1590796234,94,-20.34,57.76,294.82,1.5
Port Hardy,75,CA,1590796437,62,50.7,-127.42,287.15,6.2
Manama,0,BH,1590796323,70,26.22,50.58,303.15,1.5
Pimentel,2,PE,1590796438,87,-6.84,-79.93,293.48,6.22
Castro,0,BR,1590796438,86,-24.79,-50.01,283.27,1.43
Price,1,US,1590796335,17,39.6,-110.81,303.15,1.5
Talnakh,17,RU,1590796256,67,69.49,88.4,280.15,3.0
Longyearbyen,75,SJ,1590796440,80,78.22,15.64,277.15,8.7
Fécamp,0,FR,1590796440,71,49.76,0.37,286.48,3.6
Faanui,19,PF,1590796253,79,-16.48,-151.75,300.46,8.56
Thompson,40,CA,1590796441,31,55.74,-97.86,283.15,7.2
Carnarvon,37,AU,1590796255,76,-24.87,113.63,292.06,8.29
Tuktoyaktuk,90,CA,1590796204,92,69.45,-133.04,271.15,5.1
Ust'-Omchug,99,RU,1590796442,87,61.15,149.63,274.53,1.53
Sitka,90,US,1590796442,58,57.05,-135.33,287.15,2.1
Zhigansk,61,RU,1590796443,58,66.77,123.37,279.05,3.96
Verkhnevilyuysk,46,RU,1590796443,54,63.45,120.32,281.39,3.13
Chancay,75,PE,1590796443,82,-11.57,-77.27,292.15,6.2
Praia,20,CV,1590796444,47,14.92,-23.51,299.15,4.6
Tabou,60,CI,1590796229,90,4.42,-7.35,298.66,3.07
Saint Anthony,20,US,1590796444,42,45.02,-93.22,292.59,2.1
Santa Marta,37,CO,1590796396,87,11.24,-74.2,299.26,4.24
Mahébourg,40,MU,1590796445,94,-20.41,57.7,293.15,1.5
Mikrópolis,42,GR,1590796445,91,41.19,23.82,285.37,1.48
Padang,100,ID,1590796445,81,-0.95,100.35,299.46,2.42
Ilulissat,14,GL,1590796446,64,69.22,-51.1,274.15,2.1
Soc Trang,40,VN,1590796446,100,9.6,105.98,300.15,1.5
Busselton,34,AU,1590796447,83,-33.65,115.33,280.37,4.96
Bredasdorp,79,ZA,1590796207,87,-34.53,20.04,284.15,1.0
Alta Floresta,93,BR,1590796448,83,-9.88,-56.09,296.31,1.35
Vila,86,PT,1590796448,76,42.03,-8.16,292.59,2.24
Kaseda-shirakame,96,JP,1590796448,56,31.42,130.32,293.15,2.1
George Town,20,MY,1590796230,94,5.41,100.34,299.15,1.76
Alyangula,7,AU,1590796449,83,-13.85,136.42,296.15,4.49
Mersing,99,MY,1590796449,100,2.43,103.84,297.15,2.6
‘Ewa Beach,40,US,1590796450,45,21.32,-158.01,302.15,6.2
Tura,23,IN,1590796450,98,25.52,90.22,294.58,1.44
Saldanha,82,ZA,1590796258,87,-33.01,17.94,286.15,1.5
Lengshuijiang,38,CN,1590796450,85,27.69,111.43,295.45,0.64
Suez,0,EG,1590796451,67,29.97,32.53,290.83,3.89
Sørland,100,NO,1590796451,93,67.67,12.69,280.42,3.51
Hasaki,75,JP,1590796451,69,35.73,140.83,296.48,2.1
Tucupita,82,VE,1590796452,71,9.06,-62.05,299.78,3.01
Grand Island,75,US,1590796175,33,40.92,-98.34,298.15,1.96
Vardø,40,NO,1590796207,80,70.37,31.11,278.15,4.1
Iqaluit,90,CA,1590796224,73,63.75,-68.51,270.15,2.6
Lompoc,90,US,1590796453,68,34.64,-120.46,293.15,5.7
Thinadhoo,99,MV,1590796286,81,0.53,72.93,301.16,5.88
Iracoubo,100,GF,1590796453,86,5.48,-53.2,297.81,2.26
Houston,97,US,1590796390,57,29.76,-95.36,303.71,4.24
Abalak,52,RU,1590796454,72,58.13,68.59,283.34,2.28
Alpena,1,US,1590796454,56,45.06,-83.43,294.15,4.6
Saint-Joseph,25,RE,1590796266,53,-21.37,55.62,295.15,4.1
Leiva,85,CO,1590796455,96,1.93,-77.3,291.57,1.92
Cidreira,0,BR,1590796455,78,-30.18,-50.21,289.52,1.15
Troitsko-Pechorsk,85,RU,1590796455,81,62.71,56.2,279.71,2.32
Mon,98,IN,1590796455,92,26.75,95.1,292.8,1.35
East London,18,ZA,1590796221,65,-33.02,27.91,289.88,6.33
Klaksvík,99,FO,1590796456,62,62.23,-6.59,288.15,7.7
Province of Mantua,15,IT,1590796347,83,45.17,10.78,287.59,1.61
Kyra,65,RU,1590796456,70,49.58,111.98,280.22,6.15
Alofi,0,NU,1590796457,74,-19.06,-169.92,302.15,3.1
Lüderitz,0,NA,1590796205,47,-26.65,15.16,288.15,0.5
Tandil,100,AR,1590796273,92,-37.32,-59.13,285.93,0.89
Igarka,24,RU,1590796457,59,67.47,86.58,281.52,3.92
Catuday,8,PH,1590796458,73,16.29,119.81,301.8,2.26
Ahipara,13,NZ,1590796458,72,-35.17,173.17,290.96,1.71
Yining,88,CN,1590796458,87,29.04,114.56,295.88,0.2
Coolum Beach,44,AU,1590796459,71,-26.53,153.1,294.26,1.79
Bagotville,90,AU,1590796459,82,-28.98,153.42,290.15,4.6
Vilhena,40,BR,1590796459,83,-12.74,-60.15,298.15,1.5
Pierre,75,US,1590796460,40,44.37,-100.35,294.26,2.47
Trstenik,40,RS,1590796460,100,43.62,21.0,286.15,0.5
Sikasso,41,ML,1590796461,60,10.92,-7.0,301.62,2.31
Innisfail,41,AU,1590796461,73,-17.53,146.03,295.99,2.42
Médéa,20,DZ,1590796461,93,36.26,2.75,290.15,1.0
Oneonta,100,US,1590796461,81,42.45,-75.06,293.71,0.45
Cayenne,20,GF,1590796462,88,4.93,-52.33,299.15,1.0
Nanortalik,24,GL,1590796462,81,60.14,-45.24,276.27,7.33
Asău,95,RO,1590796462,82,46.43,26.4,282.04,2.37
Hrodna,37,BY,1590796462,79,53.69,23.83,282.06,5.62
Chiang Rai,40,TH,1590796463,100,19.91,99.83,297.04,1.0
Rocha,100,UY,1590796463,90,-34.48,-54.33,287.21,2.08
Clyde River,90,CA,1590796271,92,70.47,-68.59,270.15,3.6
Alghero,69,IT,1590796464,82,40.56,8.32,289.15,3.6
Shakhtinsk,21,KZ,1590796464,87,49.71,72.59,280.15,2.0
Northam,39,GB,1590796262,41,51.03,-4.22,289.26,4.02
Juneau,90,US,1590796205,48,58.3,-134.42,291.15,6.2
Kallithea,20,GR,1590796465,76,37.95,23.7,290.37,2.06
Muyezerskiy,26,RU,1590796465,79,63.93,31.65,278.82,2.02
Jalu,0,LY,1590796466,34,29.03,21.55,292.29,3.91
Görele,75,TR,1590796467,93,41.03,39.0,287.15,2.6
Port Macquarie,69,AU,1590796454,86,-31.43,152.92,290.37,0.45
Kaitangata,2,NZ,1590796467,71,-46.28,169.85,283.91,2.83
Cherskiy,100,RU,1590796467,48,68.75,161.3,284.04,6.34
Poum,5,NC,1590796468,75,-20.23,164.02,298.11,5.9
Ixtapa,5,MX,1590796468,69,20.7,-105.2,300.15,5.1
Bilma,0,NE,1590796468,15,18.69,12.92,303.7,2.64
Pangkalanbuun,0,ID,1590796469,83,-2.68,111.62,298.87,1.34
Verāval,9,IN,1590796469,83,20.9,70.37,302.41,5.87
Puerto del Rosario,48,ES,1590796469,73,28.5,-13.86,294.15,4.1
Orange Cove,97,US,1590796469,35,36.62,-119.31,305.15,2.85
Quatre Cocos,40,MU,1590796470,94,-20.21,57.76,294.82,1.5
Kiruna,76,SE,1590796470,80,67.86,20.23,277.15,1.0
Katherine,6,AU,1590796470,47,-14.47,132.27,297.15,2.6
Āstāneh-ye Ashrafīyeh,86,IR,1590796470,55,37.26,49.94,295.81,1.77
Kahului,40,US,1590796437,43,20.89,-156.47,305.15,10.8
Provideniya,84,RU,1590796221,84,64.38,-173.3,277.79,2.84
Vestmannaeyjar,98,IS,1590796471,92,63.44,-20.27,282.53,11.72
Hohhot,75,CN,1590796471,81,40.81,111.65,284.15,6.0
Delhi,75,IN,1590796238,73,28.67,77.22,303.71,3.1
Coquimbo,82,CL,1590796254,67,-29.95,-71.34,289.15,3.1
Kearney,1,US,1590796446,36,40.7,-99.08,299.15,3.6
Kiryat Gat,0,IL,1590796440,80,31.61,34.76,292.04,1.36
Esperance,75,AU,1590796473,81,-33.87,121.9,281.15,8.2
Necochea,100,AR,1590796473,95,-38.55,-58.74,287.04,1.34
Dallas,20,US,1590796174,35,32.77,-96.78,304.15,3.6
Broome,90,US,1590796473,88,42.25,-75.83,294.82,7.7
Belmonte,75,BR,1590796276,83,-15.86,-38.88,295.15,1.5
Hambantota,70,LK,1590796474,82,6.12,81.12,300.21,6.51
Bo Phloi,100,TH,1590796474,81,14.32,99.52,299.76,1.74
Srandakan,31,ID,1590796475,84,-7.94,110.25,299.18,1.49
Haines Junction,88,CA,1590796475,30,60.75,-137.51,291.81,3.08
Zhangaözen,0,KZ,1590796475,21,43.3,52.8,301.12,2.47
Tiksi,27,RU,1590796475,93,71.69,128.87,273.88,2.94
Constitución,70,CL,1590796475,55,-35.33,-72.42,283.04,3.39
Guerrero Negro,1,MX,1590796198,68,27.98,-114.06,293.79,9.77
Bengkulu,85,ID,1590796476,87,-3.8,102.27,298.4,2.13
Aykhal,90,RU,1590796476,60,66.0,111.5,278.15,2.0
Gornopravdinsk,25,RU,1590796476,74,60.05,69.9,283.51,3.89
Xichang,57,CN,1590796477,65,27.9,102.26,290.22,0.56
La Ronge,40,CA,1590796477,36,55.1,-105.28,290.15,3.1
Basco,49,PH,1590796477,79,20.45,121.97,302.21,3.34
Comodoro Rivadavia,0,AR,1590796262,80,-45.87,-67.5,277.15,2.6
Cabo San Lucas,5,MX,1590796359,54,22.89,-109.91,303.15,5.1
Novovarshavka,65,RU,1590796478,74,54.17,74.69,286.41,3.83
Arman',100,RU,1590796478,89,59.7,150.17,276.41,0.8
Dikson,100,RU,1590796478,99,73.51,80.55,273.02,4.42
Kieta,63,PG,1590796479,66,-6.22,155.63,302.75,1.21
Acarí,5,PE,1590796479,65,-15.43,-74.62,293.84,1.28
Rokiškis,20,LT,1590796479,63,55.97,25.58,280.33,4.33
Annau,0,TM,1590796480,16,37.89,58.52,300.48,0.22
Hammerfest,75,NO,1590796363,93,70.66,23.68,277.15,11.8
Sept-Îles,75,CA,1590796194,68,50.2,-66.38,293.15,2.1
Knysna,74,ZA,1590796480,100,-34.04,23.05,286.15,1.0
Mocuba,7,MZ,1590796480,98,-16.84,36.99,292.79,0.91
Kapit,29,MY,1590796481,85,2.02,112.93,299.45,0.19
Linjiang,0,CN,1590796481,47,41.81,126.91,294.74,1.62
Mar del Plata,90,AR,1590796449,93,-38.0,-57.56,287.59,2.1
Shingū,40,JP,1590796481,43,33.73,135.98,296.15,2.6
Hobyo,69,SO,1590796482,74,5.35,48.53,300.28,10.94
Yulara,90,AU,1590796482,38,-25.24,130.99,288.15,1.5
Lawton,1,US,1590796482,39,34.61,-98.39,304.15,1.5
Henties Bay,0,NA,1590796483,54,-22.12,14.28,289.94,1.11
Geraldton,75,AU,1590796483,82,-28.77,114.6,287.15,5.7
Mount Gambier,0,AU,1590796262,62,-37.83,140.77,285.15,7.7
Plettenberg Bay,79,ZA,1590796483,82,-34.05,23.37,286.82,1.56
Nísia Floresta,75,BR,1590796484,78,-6.09,-35.21,298.15,3.1
Kirakira,73,SB,1590796484,76,-10.45,161.92,300.91,2.2
Avarua,19,CK,1590796485,88,-21.21,-159.78,301.15,3.6
Griffith,75,US,1590796451,59,41.53,-87.42,292.59,2.74
Lodja,13,CD,1590796485,62,-3.48,23.43,295.87,0.31
Morón,100,AR,1590796485,83,-34.65,-58.62,290.37,1.99
Dawlatabad,0,AF,1590796486,19,36.41,64.91,297.99,0.72
Saint-Augustin,100,CA,1590796486,98,51.23,-58.65,283.08,4.64
Peniche,27,PT,1590796486,88,39.36,-9.38,292.59,3.13
Bowen,90,AU,1590796486,83,-20.02,148.23,297.04,2.6
Zatoka,40,UA,1590796487,93,46.07,30.47,286.15,4.0
Xining,16,CN,1590796487,65,36.62,101.77,282.61,1.18
Verkhnyaya Salda,7,RU,1590796487,81,58.05,60.55,283.76,2.53
Epe,100,NG,1590796488,89,6.58,3.98,299.76,2.57
Sibolga,100,ID,1590796488,78,1.74,98.78,299.39,1.38
Sola,75,VU,1590796489,83,-13.88,167.55,302.15,2.1
Port Hawkesbury,75,CA,1590796489,83,45.62,-61.35,295.37,6.2
Dunda,5,TZ,1590796489,89,-8.12,34.25,289.09,1.22
São Filipe,0,CV,1590796490,69,14.9,-24.5,297.3,1.57
‘Āhuimanu,20,US,1590796490,46,21.44,-157.84,305.15,4.1
Klyuchi,52,RU,1590796491,72,52.27,79.17,290.04,4.47
Bima,98,ID,1590796491,82,-8.47,118.72,299.82,1.19
Agadez,50,NE,1590796491,16,19.75,10.25,303.41,0.97
Bullhead City,20,US,1590796491,7,35.15,-114.57,317.15,11.8
Kishanganj,3,IN,1590796492,83,26.12,87.93,297.54,4.2
Nabire,100,ID,1590796341,77,-3.37,135.48,300.08,0.77
Moranbah,12,AU,1590796492,70,-22.0,148.05,292.74,7.14
Torbay,75,CA,1590796492,87,47.67,-52.73,288.71,13.9
Stornoway,99,GB,1590796493,82,58.21,-6.39,286.48,3.48
Tilichiki,100,RU,1590796493,99,60.47,166.1,276.06,2.39
Santa Isabel Rio Negro,92,BR,1590796494,97,-0.41,-65.02,296.64,1.11
Changde,5,CN,1590796494,84,29.05,111.68,294.96,3.04
Kutum,25,SD,1590796494,22,14.2,24.67,294.82,5.02
Kanniyākumāri,82,IN,1590796495,81,8.08,77.57,300.37,7.66
Anadyr,75,RU,1590796495,100,64.75,177.48,275.15,14.0
Athabasca,94,CA,1590796495,57,54.72,-113.29,289.37,4.15
Marabba,49,SD,1590796496,14,12.35,32.18,305.23,4.14
Caravelas,45,BR,1590796496,74,-17.71,-39.25,295.16,3.1
Manokwari,80,ID,1590796496,67,-0.87,134.08,301.71,1.47
Dawei,100,MM,1590796496,85,14.08,98.2,299.76,0.55
Baruun-Urt,89,MN,1590796497,69,46.68,113.28,283.39,4.36
Quiindy,19,PY,1590796497,82,-25.97,-57.27,290.05,2.42
Namatanai,100,PG,1590796497,69,-3.67,152.43,302.11,1.28
Madarounfa,99,NE,1590796497,24,13.31,7.16,305.61,2.98
Kandrian,100,PG,1590796498,76,-6.22,149.55,301.07,1.97
Hamilton,90,US,1590796498,64,39.18,-84.53,296.15,4.6
Pisco,10,PE,1590796498,82,-13.7,-76.22,292.15,5.7
Trincomalee,5,LK,1590796498,73,8.57,81.23,301.08,5.62
Coahuayana Viejo,40,MX,1590796499,54,18.73,-103.68,301.15,6.2
Barcelos,90,PT,1590796499,100,41.54,-8.62,292.59,1.0
Huarmey,34,PE,1590796499,85,-10.07,-78.15,292.84,4.49
Faya,0,SA,1590796257,24,18.39,42.45,294.15,2.1
Boda,100,CF,1590796500,95,4.32,17.47,294.53,1.29
Denia,0,ES,1590796500,73,38.84,0.11,293.71,0.45
Zaysan,0,KZ,1590796500,37,47.47,84.87,288.84,1.94
Chicama,4,PE,1590796500,77,-7.84,-79.15,294.7,3.37
Kaduna,100,NG,1590796501,68,10.52,7.44,299.18,2.78
Shelburne,90,CA,1590796501,93,44.08,-80.2,287.15,3.1
Macrohon,99,PH,1590796501,83,10.08,124.94,299.39,1.63
Norman Wells,20,CA,1590796237,20,65.28,-126.83,293.15,3.1
Sinnamary,96,GF,1590796502,87,5.38,-52.95,297.86,2.29
Dayong,90,CN,1590796502,88,25.02,118.29,299.15,1.0
Beïnamar,100,TD,1590796502,59,8.67,15.38,299.08,2.24
Kitgum,82,UG,1590796503,93,3.28,32.89,292.32,1.6
Pareora,0,NZ,1590796503,78,-44.49,171.21,284.26,2.24
Borovikha,97,RU,1590796503,51,53.51,83.84,288.15,5.0
Albert Town,20,JM,1590796503,74,18.29,-77.54,302.15,4.1
Derzhavīnsk,33,KZ,1590796504,81,51.1,66.32,290.58,4.95
Mabaruma,26,GY,1590796504,86,8.2,-59.78,298.06,2.18
Raudeberg,57,NO,1590796504,73,61.99,5.14,283.71,2.15
San Quintín,22,MX,1590796250,71,30.48,-115.95,293.12,5.82
Kenai,1,US,1590796505,35,60.55,-151.26,295.15,4.6
Paamiut,7,GL,1590796505,87,61.99,-49.67,275.21,9.04
Pachmarhi,0,IN,1590796506,39,22.47,78.43,296.53,1.98
Ossora,90,RU,1590796506,71,59.24,163.07,277.87,0.05
Codrington,0,AU,1590796506,58,-38.27,141.97,286.53,9.31
Uchiza,41,PE,1590796506,66,-8.46,-76.46,295.96,1.3
Hofn,100,IS,1590796507,95,64.25,-15.21,282.17,6.49
Cumberland,40,US,1590796507,88,35.05,-78.87,297.15,2.1
Eydhafushi,93,MV,1590796507,78,5.1,73.07,300.86,5.85
San Carlos,21,VE,1590796507,79,9.66,-68.58,298.74,0.08
Mogadishu,96,SO,1590796508,81,2.04,45.34,299.68,6.01
Izhma,17,RU,1590796508,67,65.01,53.91,278.7,3.05
Maceió,75,BR,1590796338,88,-9.67,-35.74,297.15,2.6
Orem,40,US,1590796233,25,40.3,-111.69,305.93,3.1
Preobrazheniye,0,RU,1590796509,47,42.9,133.91,293.24,4.53
Rouvroy,0,FR,1590796509,67,50.39,2.9,288.15,4.1
Emba,0,KZ,1590796509,63,48.83,58.14,293.47,2.55
Denpasar,20,ID,1590796367,100,-8.65,115.22,300.15,0.5
Carutapera,94,BR,1590796510,88,-1.2,-46.02,298.45,2.33
Mangai,45,CD,1590796510,84,-4.05,19.53,295.91,0.38
Belyy Yar,96,RU,1590796511,61,53.6,91.39,282.15,3.0
Chhor,9,PK,1590796511,81,25.52,69.77,300.8,7.9
Tamiahua,93,MX,1590796511,76,21.27,-97.45,299.09,4.89
Lumby,1,CA,1590796512,44,50.25,-118.97,301.48,6.7
São Mateus,63,BR,1590796512,87,-18.72,-39.86,291.7,2.19
Dunedin,0,NZ,1590796490,56,-45.87,170.5,285.32,0.61
Hong Kong,96,HK,1590796513,95,22.29,114.16,298.71,2.68
Puro,81,PH,1590796513,71,12.48,123.38,302.36,3.18
Naze,75,JP,1590796260,83,28.37,129.48,298.15,2.6
Phalodi,65,IN,1590796514,77,27.13,72.37,300.55,6.07
Tevriz,47,RU,1590796514,74,57.51,72.4,284.23,3.38
Waddān,0,LY,1590796254,29,29.16,16.14,294.54,6.79
Povenets,45,RU,1590796515,70,62.85,34.83,280.59,2.88
Bilibino,87,RU,1590796515,56,68.05,166.44,280.9,5.87
Muravlenko,87,RU,1590796515,85,63.79,74.52,281.96,8.29
Lagoa,100,PT,1590796516,90,39.05,-27.98,290.69,8.15
Bud,90,US,1590796516,46,39.45,-86.18,297.04,3.1
Bondo,62,CD,1590796516,97,3.81,23.69,293.46,0.94
Fallon,75,US,1590796517,7,39.47,-118.78,307.15,1.5
Mahon,49,ES,1590796517,72,39.89,4.27,291.15,2.1
San Fernando del Valle de Catamarca,58,AR,1590796517,58,-28.47,-65.79,291.48,0.45
Kailua,20,US,1590796517,46,21.4,-157.74,305.15,4.1
Port Elizabeth,55,ZA,1590796518,82,-33.92,25.57,286.15,2.6
Bagua Grande,2,PE,1590796518,62,-5.76,-78.44,297.97,1.72
Baicheng,10,CN,1590796518,61,45.62,122.82,295.93,1.79
Oranjemund,36,NA,1590796518,66,-28.55,16.43,287.54,2.73
Moerai,100,PF,1590796519,76,-22.43,-151.33,297.87,4.66
Olafsvik,100,IS,1590796255,93,64.89,-23.71,281.86,8.85
Kruisfontein,63,ZA,1590796519,94,-34.0,24.73,283.96,2.81
Domoni,0,KM,1590796519,77,-12.26,44.53,298.07,3.81
Prince Rupert,20,CA,1590796454,63,54.32,-130.32,289.15,4.1
Carballo,90,ES,1590796520,93,43.21,-8.69,290.37,0.5
Jipijapa,75,EC,1590796520,65,-1.33,-80.58,301.15,3.1
Turan,20,VN,1590796337,88,16.07,108.22,300.15,1.0
Paso de los Toros,89,UY,1590796521,88,-32.82,-56.52,288.76,2.39
Vila Franca do Campo,20,PT,1590796250,77,37.72,-25.43,288.15,2.1
Meulaboh,75,ID,1590796522,83,4.14,96.13,298.97,1.8
Kawalu,53,ID,1590796522,90,-7.38,108.21,297.04,0.69
Mehamn,93,NO,1590796522,77,71.04,27.85,278.74,7.66
Bosaso,97,SO,1590796523,55,11.28,49.18,305.88,6.51
Kavieng,94,PG,1590796523,68,-2.57,150.8,302.52,2.86
Grand Gaube,0,MU,1590796523,84,-20.01,57.66,294.82,1.79
Ende,36,ID,1590796235,67,-8.84,121.66,300.44,0.46
Marinette,75,US,1590796524,52,45.1,-87.63,291.15,4.1
Bereda,63,ES,1590796524,99,43.27,-7.54,289.26,0.45
Āmlāgora,19,IN,1590796524,87,22.83,87.33,299.26,1.84
Ust-Maya,24,RU,1590796524,48,60.42,134.53,281.23,4.38
Ostrovnoy,55,RU,1590796525,84,68.05,39.51,278.21,1.98
Nueve de Julio,100,AR,1590796244,92,-35.44,-60.88,288.15,0.45
Bhīnmāl,11,IN,1590796525,89,25.0,72.25,299.44,6.06
Ballina,40,AU,1590796525,88,-28.87,153.57,290.15,5.1
Morros,100,BR,1590796526,75,-9.45,-46.3,296.79,2.86
Camacha,75,PT,1590796526,82,33.08,-16.33,292.15,4.6
Tsybli,76,UA,1590796526,100,49.99,31.56,286.15,2.0
Palmer,90,US,1590796527,73,42.16,-72.33,297.15,7.2
Assiut,21,EG,1590796527,52,27.18,31.18,293.15,5.1
Sistranda,75,NO,1590796527,87,63.73,8.83,282.15,1.5
Bathsheba,20,BB,1590796527,74,13.22,-59.52,301.15,8.7
Benghazi,0,LY,1590796528,64,32.12,20.07,291.16,4.49
Huaibei,100,CN,1590796528,79,33.97,116.79,292.28,4.75
Sechura,4,PE,1590796529,72,-5.56,-80.82,296.2,7.57
Barra Patuca,77,HN,1590796529,81,15.8,-84.28,300.82,3.99
Port Hedland,78,AU,1590796529,82,-20.32,118.57,292.15,2.6
Muhafazat Lahij,27,YE,1590796529,38,13.17,44.58,305.42,2.64
Maniitsoq,2,GL,1590796529,89,65.42,-52.9,274.22,5.34
Lakatoro,75,VU,1590796530,74,-16.1,167.42,301.15,1.0
Mergen,31,CN,1590796530,60,49.18,125.22,293.93,7.18
Trairi,99,BR,1590796530,91,-3.28,-39.27,297.8,2.92
Itaituba,88,BR,1590796462,95,-4.28,-55.98,297.37,0.75
Kédougou,97,SN,1590796531,47,12.56,-12.17,304.77,2.89
Bandarbeyla,64,SO,1590796531,75,9.49,50.81,299.98,12.31
Macao,75,MO,1590796532,94,22.2,113.55,299.15,5.7
Itinga,25,BR,1590796278,83,-16.61,-41.77,289.54,1.25
Aklavik,40,CA,1590796532,58,68.22,-135.01,277.15,5.1
São Miguel,75,BR,1590796532,88,-5.47,-35.37,298.15,2.1
Tonj,100,SS,1590796533,83,7.27,28.68,296.47,2.45
Ville-Marie,90,CA,1590796533,76,47.33,-79.43,287.15,4.6
San Policarpo,100,PH,1590796533,72,12.18,125.51,302.39,2.37
Almenara,46,BR,1590796502,84,-16.18,-40.69,291.71,1.07
Surab,2,PK,1590796534,30,28.49,66.26,294.24,3.04
Nizhnevartovsk,75,RU,1590796374,100,60.93,76.55,283.15,4.0
Ashland,90,US,1590796534,82,40.82,-82.27,291.15,3.1
Cairns,29,AU,1590796308,64,-16.92,145.77,297.15,4.6
Zhoucheng,19,CN,1590796535,56,35.91,116.31,295.15,5.38
Belaya Gora,55,RU,1590796535,46,68.53,146.42,283.86,8.54
Todos Santos,0,MX,1590796535,79,23.45,-110.22,293.15,3.58
Gaza,0,PS,1590796536,80,31.5,34.47,292.04,2.52
Kremenki,100,RU,1590796536,93,54.88,37.13,288.15,6.0
Vaitape,17,PF,1590796536,77,-16.52,-151.75,300.94,8.54
Kitimat,75,CA,1590796408,66,54.05,-128.65,289.26,1.34
Yancheng,100,CN,1590796537,86,33.39,120.13,289.95,6.36
Kalmunai,32,LK,1590796537,84,7.42,81.82,299.61,3.87
Ankpa,96,NG,1590796537,95,7.37,7.63,296.45,2.8
Port Lincoln,37,AU,1590796537,41,-34.73,135.87,291.16,15.68
Kuito,60,AO,1590796538,59,-12.38,16.93,285.45,1.1
Marawi,86,PH,1590796538,81,8.0,124.29,300.93,0.45
Øksfjord,97,NO,1590796538,70,70.24,22.35,280.15,6.2
Byron Bay,40,AU,1590796539,88,-28.65,153.62,290.15,5.1
Jacmel,92,HT,1590796539,62,18.23,-72.53,303.15,0.5
Sault Ste. Marie,1,CA,1590796270,71,46.52,-84.33,287.15,5.7
Houma,40,US,1590796540,78,29.6,-90.72,300.93,3.1
São Raimundo Nonato,93,BR,1590796541,65,-9.02,-42.7,296.56,2.54
Jasper,1,US,1590796425,44,37.2,-94.35,298.15,4.1
Nuuk,30,GL,1590796542,80,64.18,-51.72,274.15,6.2
Akdepe,0,TM,1590796543,22,42.06,59.38,298.15,1.0
Touros,75,BR,1590796543,88,-5.2,-35.46,297.15,2.1
Antofagasta,80,CL,1590796543,72,-23.65,-70.4,291.15,1.5
Awjilah,0,LY,1590796543,47,29.11,21.29,291.67,3.97
Solnechnyy,81,RU,1590796544,45,50.72,136.63,295.21,0.56
Turukhansk,58,RU,1590796293,61,65.82,87.98,284.94,1.36
Lata,75,PT,1590796544,88,40.16,-8.33,291.48,3.1
Bonfim,55,BR,1590796544,87,3.08,-59.95,297.91,2.66
Port-Gentil,40,GA,1590796283,88,-0.72,8.78,299.15,4.6
Iskateley,100,RU,1590796545,88,67.68,53.15,277.73,6.24
Katsuura,97,JP,1590796545,64,35.13,140.3,297.04,0.89
Córdoba,23,AR,1590796546,71,-31.41,-64.18,290.93,2.1
Tshane,0,BW,1590796546,37,-24.02,21.87,284.68,3.16
Kikwit,76,CD,1590796546,58,-5.04,18.82,298.83,0.53
Kalikino,73,RU,1590796547,67,52.95,39.83,290.15,4.0
Tezu,100,IN,1590796547,70,27.92,96.17,296.26,1.14
Demerval Lobão,40,BR,1590796548,83,-5.36,-42.68,300.15,3.6
Kolkwitz,12,DE,1590796548,70,51.75,14.25,283.71,0.45
Tānsen,75,NP,1590796548,84,27.87,83.55,288.98,1.67
Mucurapo,20,TT,1590796549,78,10.67,-61.53,300.93,2.6
Russell,75,US,1590796549,88,32.35,-85.2,304.15,3.1
Jacareacanga,97,BR,1590796549,92,-6.22,-57.75,297.4,0.4
Thio,79,NC,1590796549,78,-21.62,166.22,297.15,1.0
Beaufort,75,MY,1590796550,88,5.35,115.75,301.15,0.79
Los Llanos de Aridane,90,ES,1590796270,64,28.66,-17.92,295.15,3.1
Hualmay,17,PE,1590796550,86,-11.1,-77.61,292.15,3.87
Usinsk,56,RU,1590796550,73,65.99,57.53,278.75,9.61
Lhokseumawe,100,ID,1590796256,79,5.18,97.15,298.83,2.31
Presidencia Roque Sáenz Peña,72,AR,1590796551,72,-26.79,-60.44,291.84,2.96
Laas,5,IT,1590796551,75,46.62,10.7,281.15,1.5
Alappuzha,100,IN,1590796551,91,9.49,76.33,298.52,1.96
Bihārīganj,0,IN,1590796552,84,25.73,86.98,297.98,4.39
Tomatlán,0,MX,1590796552,60,19.93,-105.25,299.9,4.55
Itō,75,JP,1590796552,83,34.97,139.08,295.15,4.1
Seymchan,98,RU,1590796553,57,62.88,152.43,280.8,1.75
Salinópolis,99,BR,1590796353,86,-0.61,-47.36,299.71,4.46
Nakapiripirit,87,UG,1590796553,78,1.92,34.78,292.29,0.45
Nome,1,US,1590796554,54,64.5,-165.41,290.37,5.7
Ocós,75,GT,1590796554,83,14.51,-92.19,301.15,1.86
Minot,1,US,1590796554,32,48.23,-101.3,292.15,5.1
Tieling,44,CN,1590796554,44,42.29,123.84,295.6,7.62
Nioro,100,GM,1590796555,62,13.35,-15.75,299.17,4.83
Korem,76,ET,1590796555,49,12.51,39.52,286.95,0.51
Brunswick,90,US,1590796281,87,41.24,-81.84,289.26,3.6
Euclides da Cunha,76,BR,1590796555,98,-10.51,-39.02,291.39,2.74
Valdivia,0,CL,1590796556,100,-39.81,-73.25,275.15,1.18
Westport,75,US,1590796556,83,41.14,-73.36,295.93,5.7
Port Blair,89,IN,1590796556,81,11.67,92.75,301.88,2.96
Tarancón,8,ES,1590796557,68,40.01,-3.01,295.37,3.1
Arrondissement du Havre,0,FR,1590796557,71,49.58,0.33,286.15,3.6
Berlevåg,92,NO,1590796557,78,70.86,29.09,279.06,8.39
San Jerónimo,29,PE,1590796558,63,-11.95,-75.28,281.36,2.23
Aitape,79,PG,1590796558,64,-3.14,142.35,302.87,0.39
Campoverde,48,PE,1590796558,64,-8.48,-74.81,296.8,0.23
Burdur,75,TR,1590796558,87,37.72,30.29,284.15,2.1
Yumen,0,CN,1590796559,26,40.28,97.2,289.41,0.76
Margate,0,GB,1590796559,86,51.38,1.39,285.93,1.79
Gladstone,16,AU,1590796559,60,-23.85,151.25,295.15,5.7
São Félix do Xingu,92,BR,1590796560,95,-6.64,-51.99,296.03,0.95
Buchanan,100,LR,1590796560,86,5.88,-10.05,299.4,2.98
Mossamedes,0,AO,1590796560,45,-15.2,12.15,296.72,2.57
Gornorechenskiy,0,RU,1590796561,30,44.26,135.11,299.39,2.56
Yangi Marg`ilon,0,UZ,1590796561,42,40.43,71.72,293.15,4.1
Araouane,36,ML,1590796561,24,18.9,-3.53,307.46,1.17
Tokur,100,RU,1590796562,70,53.13,132.9,288.1,1.08
Littleton,75,US,1590796562,24,39.61,-105.02,301.48,6.7
Saint-Louis,35,SN,1590796562,31,16.33,-15.0,306.15,2.1
Aborlan,75,PH,1590796562,88,9.44,118.55,300.15,4.1
Baharly,0,TM,1590796563,14,38.44,57.43,302.02,1.88
Balabac,39,PH,1590796563,69,7.99,117.06,303.25,5.75
College,75,US,1590796563,25,64.86,-147.8,297.15,4.64
Yenagoa,97,NG,1590796564,95,4.92,6.26,297.91,1.17
Les Escoumins,39,CA,1590796564,75,48.11,-69.02,292.26,6.77
Twin Falls,1,US,1590796564,21,42.56,-114.46,308.15,3.6
Dosso,91,NE,1590796565,23,13.05,3.19,307.5,2.9
Volzhskiy,27,RU,1590796565,51,48.79,44.78,290.15,3.0
Tucumã,100,BR,1590796565,91,-0.18,-50.05,298.14,2.53
Viranşehir,0,TR,1590796565,56,37.24,39.76,288.07,3.4
Esim,35,GH,1590796566,88,4.87,-2.24,299.66,3.0
Caucayá,72,CO,1590796566,96,-0.19,-74.78,296.56,1.09
Ariquemes,33,BR,1590796566,89,-9.91,-63.04,296.83,0.97
Selma,97,US,1590796566,35,36.57,-119.61,308.71,5.86
The Valley,20,AI,1590796567,70,18.22,-63.06,302.15,3.1
Moree,0,AU,1590796567,62,-29.47,149.85,288.15,4.1
Kiama,0,AU,1590796359,64,-34.68,150.87,292.04,0.89
Marfino,75,RU,1590796567,93,55.7,37.38,290.37,5.0
Conceição do Araguaia,75,BR,1590796568,83,-8.26,-49.26,300.15,1.5
Apollonia,9,GR,1590796568,82,36.97,24.72,290.15,2.6
Xinzhi,8,CN,1590796569,45,36.5,111.7,295.96,2.13
Atar,51,MR,1590796479,20,20.52,-13.05,306.27,1.14
Rio Verde de Mato Grosso,0,BR,1590796569,55,-18.92,-54.84,292.33,1.47
Acapulco de Juárez,20,MX,1590796448,78,16.86,-99.89,299.15,8.2
